[
  {
    "name": "Tamales de Elote",
    "chef": "Doña María",
    "suggestions": ["Acompañar con café", "Perfecto para desayuno"],
    "greeting": "¡Bienvenido a nuestra cocina!",
    "address": "Calle Principal 123, San Juan Tahitic",
    "owner": "Doña María",
    "hours": "08:00 - 15:00",
    "image": "/images/cultura/gastronomia/tlayoyos.png",
    "phone": "555-1234",
    "lat": 19.4326,
    "lng": -99.1332 
  },
  {
    "name": "Mole Tradicional",
    "chef": "Chef Juan",
    "suggestions": ["Prueba con arroz", "Ideal para comida familiar"],
    "greeting": "¡Disfruta del sabor de nuestra tierra!",
    "address": "Av. Cultural 45, San Juan Tahitic",
    "owner": "Chef Juan",
    "hours": "10:00 - 18:00",
    "image": "/videos/calendario/imagenes/luna.png",
    "phone": "555-1234",
    "lat": 19.4326,
    "lng": -99.1332 
  },
  {
    "name": "Tamales de Elote",
    "chef": "Doña María",
    "suggestions": ["Acompañar con café", "Perfecto para desayuno"],
    "greeting": "¡Bienvenido a nuestra cocina!",
    "address": "Calle Principal 123, San Juan Tahitic",
    "owner": "Doña María",
    "hours": "08:00 - 15:00",
    "image": "/videos/calendario/imagenes/luna.png",
    "phone": "555-1234",
    "lat": 19.4326,
    "lng": -99.1332 
  },
  {
    "name": "Mole Tradicional",
    "chef": "Chef Juan",
    "suggestions": ["Prueba con arroz", "Ideal para comida familiar"],
    "greeting": "¡Disfruta del sabor de nuestra tierra!",
    "address": "Av. Cultural 45, San Juan Tahitic",
    "owner": "Chef Juan",
    "hours": "10:00 - 18:00",
    "image": "/videos/calendario/imagenes/luna.png",
    "phone": "555-1234",
    "lat": 19.4326,
    "lng": -99.1332 
  },
  {
    "name": "Tamales de Elote",
    "chef": "Doña María",
    "suggestions": ["Acompañar con café", "Perfecto para desayuno"],
    "greeting": "¡Bienvenido a nuestra cocina!",
    "address": "Calle Principal 123, San Juan Tahitic",
    "owner": "Doña María",
    "hours": "08:00 - 15:00",
    "image": "/videos/calendario/imagenes/luna.png",
    "phone": "555-1234",
    "lat": 19.4326,
    "lng": -99.1332 
  },
  {
    "name": "Mole Tradicional",
    "chef": "Chef Juan",
    "suggestions": ["Prueba con arroz", "Ideal para comida familiar"],
    "greeting": "¡Disfruta del sabor de nuestra tierra!",
    "address": "Av. Cultural 45, San Juan Tahitic",
    "owner": "Chef Juan",
    "hours": "10:00 - 18:00",
    "image": "/videos/calendario/imagenes/luna.png",
    "phone": "555-1234",
    "lat": 19.4326,
    "lng": -99.1332 
  },
  {
    "name": "Tamales de Elote",
    "chef": "Doña María",
    "suggestions": ["Acompañar con café", "Perfecto para desayuno"],
    "greeting": "¡Bienvenido a nuestra cocina!",
    "address": "Calle Principal 123, San Juan Tahitic",
    "owner": "Doña María",
    "hours": "08:00 - 15:00",
    "image": "/videos/calendario/imagenes/luna.png",
    "phone": "555-1234",
    "lat": 19.4326,
    "lng": -99.1332 
  },
  {
    "name": "Mole Tradicional",
    "chef": "Chef Juan",
    "suggestions": ["Prueba con arroz", "Ideal para comida familiar"],
    "greeting": "¡Disfruta del sabor de nuestra tierra!",
    "address": "Av. Cultural 45, San Juan Tahitic",
    "owner": "Chef Juan",
    "hours": "10:00 - 18:00",
    "image": "/videos/calendario/imagenes/luna.png",
    "phone": "555-1234",
    "lat": 19.4326,
    "lng": -99.1332 
  }
]
