[
  {
    "name": "Corn Tamales",
    "chef": "Doña María",
    "suggestions": ["Pair with Mexican coffee", "Perfect for breakfast"],
    "greeting": "Welcome to our traditional kitchen!",
    "address": "Main Street 123, San Juan Tahitic",
    "owner": "Doña María",
    "hours": "06:00 - 14:00",
    "image": "/images/cultura/gastronomia/tamales-elote.png",
    "phone": "555-0101",
    "lat": 19.4326,
    "lng": -99.1332
  },
  {
    "name": "Traditional Mole",
    "chef": "Chef Juan",
    "suggestions": ["Serve with red rice", "Ideal for family celebrations"],
    "greeting": "Enjoy the authentic flavor of our land!",
    "address": "Cultural Ave. 45, San Juan Tahitic",
    "owner": "Chef Juan",
    "hours": "12:00 - 20:00",
    "image": "/images/cultura/gastronomia/mole-tradicional.png",
    "phone": "555-0102",
    "lat": 19.4330,
    "lng": -99.1340
  },
  {
    "name": "Tlayudas with Tasajo",
    "chef": "Mrs. Elena",
    "suggestions": ["Accompany with molcajete sauce", "Perfect for dinner"],
    "greeting": "Flavors that tell stories!",
    "address": "Municipal Market, Stall 8, San Juan Tahitic",
    "owner": "Mrs. Elena",
    "hours": "08:00 - 22:00",
    "image": "/images/cultura/gastronomia/tlayudas.png",
    "phone": "555-0103",
    "lat": 19.4315,
    "lng": -99.1325
  },
  {
    "name": "Red Pozole",
    "chef": "Doña Carmen",
    "suggestions": ["Add oregano and lime", "Ideal for festive days"],
    "greeting": "Hot and delicious like my grandmother used to make!",
    "address": "Central Plaza 67, San Juan Tahitic",
    "owner": "Doña Carmen",
    "hours": "13:00 - 18:00",
    "image": "/images/cultura/gastronomia/pozole.png",
    "phone": "555-0104",
    "lat": 19.4320,
    "lng": -99.1330
  },
  {
    "name": "Chiles en Nogada",
    "chef": "Chef Antonio",
    "suggestions": ["Enjoy in season", "Perfect for patriotic dates"],
    "greeting": "An explosion of flavors and colors!",
    "address": "El Jardín Restaurant, San Juan Tahitic",
    "owner": "Chef Antonio",
    "hours": "11:00 - 19:00",
    "image": "/images/cultura/gastronomia/chiles-nogada.png",
    "phone": "555-0105",
    "lat": 19.4328,
    "lng": -99.1338
  },
  {
    "name": "Lamb Barbacoa",
    "chef": "Don Roberto",
    "suggestions": ["Accompany with consommé", "Ideal for family Sundays"],
    "greeting": "Tradition you can taste!",
    "address": "Traditional Oven, Cerro del Sabino, San Juan Tahitic",
    "owner": "Don Roberto",
    "hours": "07:00 - 16:00",
    "image": "/images/cultura/gastronomia/barbacoa.png",
    "phone": "555-0106",
    "lat": 19.4340,
    "lng": -99.1350
  },
  {
    "name": "Green Enchiladas",
    "chef": "Mrs. Lupe",
    "suggestions": ["Serve with shredded chicken", "Perfect for quick meals"],
    "greeting": "Just like home cooking!",
    "address": "Lupita's Economy Kitchen, San Juan Tahitic",
    "owner": "Mrs. Lupe",
    "hours": "08:00 - 17:00",
    "image": "/images/cultura/gastronomia/enchiladas.png",
    "phone": "555-0107",
    "lat": 19.4310,
    "lng": -99.1320
  },
  {
    "name": "Michoacán Style Carnitas",
    "chef": "Don Miguel",
    "suggestions": ["Try the ribs and lean meat", "Ideal for gatherings"],
    "greeting": "The flavor of Purépecha tradition!",
    "address": "Las Carnitas Stand, Old Market, San Juan Tahitic",
    "owner": "Don Miguel",
    "hours": "09:00 - 18:00",
    "image": "/images/cultura/gastronomia/carnitas.png",
    "phone": "555-0108",
    "lat": 19.4325,
    "lng": -99.1335
  }
]