[
  {
    "name": "Tamales de Elote",
    "chef": "Doña María",
    "suggestions": ["Acompañar con café de olla", "Perfecto para desayuno"],
    "greeting": "¡Bienvenido a nuestra cocina tradicional!",
    "address": "Calle Principal 123, San Juan Tahitic",
    "owner": "Doña María",
    "hours": "06:00 - 14:00",
    "image": "https://res.cloudinary.com/dinsl266g/image/upload/v1763081984/tamales-elote_sqzlvd.png",
    "phone": "555-0101",
    "lat": 19.4326,
    "lng": -99.1332
  },
  {
    "name": "Mole Tradicional",
    "chef": "Chef Juan",
    "suggestions": ["Servir con arroz rojo", "Ideal para celebraciones familiares"],
    "greeting": "¡Disfruta del auténtico sabor de nuestra tierra!",
    "address": "Av. Cultural 45, San Juan Tahitic",
    "owner": "Chef Juan",
    "hours": "12:00 - 20:00",
    "image": "https://res.cloudinary.com/dinsl266g/image/upload/v1763084724/mole-tradicional_ghszbl.png",
    "phone": "555-0102",
    "lat": 19.4330,
    "lng": -99.1340
  },
  {
    "name": "Tlayudas con Tasajo",
    "chef": "Señora Elena",
    "suggestions": ["Acompañar con salsa de molcajete", "Perfecta para cena"],
    "greeting": "¡Sabores que cuentan historias!",
    "address": "Mercado Municipal, Local 8, San Juan Tahitic",
    "owner": "Señora Elena",
    "hours": "08:00 - 22:00",
    "image": "https://res.cloudinary.com/dinsl266g/image/upload/v1763084723/tlayudas_dp32xt.png",
    "phone": "555-0103",
    "lat": 19.4315,
    "lng": -99.1325
  },
  {
    "name": "Pozole Rojo",
    "chef": "Doña Carmen",
    "suggestions": ["Agregar orégano y limón", "Ideal para días festivos"],
    "greeting": "¡Calientito y delicioso como lo hacía mi abuela!",
    "address": "Plaza Central 67, San Juan Tahitic",
    "owner": "Doña Carmen",
    "hours": "13:00 - 18:00",
    "image": "https://res.cloudinary.com/dinsl266g/image/upload/v1763084727/pozole_spgzfs.png",
    "phone": "555-0104",
    "lat": 19.4320,
    "lng": -99.1330
  },
  {
    "name": "Chiles en Nogada",
    "chef": "Chef Antonio",
    "suggestions": ["Disfrutar en temporada", "Perfecto para fechas patrias"],
    "greeting": "¡Una explosión de sabores y colores!",
    "address": "Restaurante El Jardín, San Juan Tahitic",
    "owner": "Chef Antonio",
    "hours": "11:00 - 19:00",
    "image": "https://res.cloudinary.com/dinsl266g/image/upload/v1763084728/chiles-nogada_gsooxh.png", 
    "phone": "555-0105",
    "lat": 19.4328,
    "lng": -99.1338
  },
  {
    "name": "Barbacoa de Borrego",
    "chef": "Don Roberto",
    "suggestions": ["Acompañar con consomé", "Ideal para domingos familiares"],
    "greeting": "¡Tradición que se saborea!",
    "address": "Horno Tradicional, Cerro del Sabino, San Juan Tahitic",
    "owner": "Don Roberto",
    "hours": "07:00 - 16:00",
    "image": "https://res.cloudinary.com/dinsl266g/image/upload/v1763084722/barbacoa_kfcqf6.png",
    "phone": "555-0106",
    "lat": 19.4340,
    "lng": -99.1350
  },
  {
    "name": "Enchiladas Verdes",
    "chef": "Señora Lupe",
    "suggestions": ["Servir con pollo desmenuzado", "Perfectas para comida rápida"],
    "greeting": "¡Como las de casa!",
    "address": "Cocina Económica Lupita, San Juan Tahitic",
    "owner": "Señora Lupe",
    "hours": "08:00 - 17:00",
    "image": "https://res.cloudinary.com/dinsl266g/image/upload/v1763084723/enchiladas_fnc92d.png",
    "phone": "555-0107",
    "lat": 19.4310,
    "lng": -99.1320
  },
  {
    "name": "Carnitas Estilo Michoacán",
    "chef": "Don Miguel",
    "suggestions": ["Probar la costilla y la maciza", "Ideal para reuniones"],
    "greeting": "¡El sabor de la tradición purépecha!",
    "address": "Puesto Las Carnitas, Mercado Viejo, San Juan Tahitic",
    "owner": "Don Miguel",
    "hours": "09:00 - 18:00",
    "image": "https://res.cloudinary.com/dinsl266g/image/upload/v1763084722/carnitas_qsvflb.png",
    "phone": "555-0108",
    "lat": 19.4325,
    "lng": -99.1335
  }
]