[
  {
    "name": "Tamalli elotl",
    "chef": "Doña María",
    "suggestions": ["Moneki ica chocolatl", "Cualli ipan tlaxcali"],
    "greeting": "¡Ximopanolti ipan totlacual!",
    "address": "Calle Principal 123, San Juan Tahitic",
    "owner": "Doña María",
    "hours": "06:00 - 14:00",
    "image": "https://res.cloudinary.com/dinsl266g/image/upload/v1763081984/tamales-elote_sqzlvd.png",
    "phone": "555-0101",
    "lat": 19.4326,
    "lng": -99.1332
  },
  {
    "name": "Mulli tradicional",
    "chef": "Chef Juan",
    "suggestions": ["Tequi ica aroz", "Cualli ipan cencah tlacual"],
    "greeting": "¡Xiqualti tlen to tlalpan!",
    "address": "Av. Cultural 45, San Juan Tahitic",
    "owner": "Chef Juan",
    "hours": "12:00 - 20:00",
    "image": "https://res.cloudinary.com/dinsl266g/image/upload/v1763084724/mole-tradicional_ghszbl.png",
    "phone": "555-0102",
    "lat": 19.4330,
    "lng": -99.1340
  },
  {
    "name": "Tlayohua ica tasajo",
    "chef": "Señora Elena",
    "suggestions": ["Moneki ica mulli", "Cualli ipan tlacatlahtohcayotl"],
    "greeting": "¡Qualtia tlen moteneh!",
    "address": "Mercado Municipal, Local 8, San Juan Tahitic",
    "owner": "Señora Elena",
    "hours": "08:00 - 22:00",
    "image": "https://res.cloudinary.com/dinsl266g/image/upload/v1763084723/tlayudas_dp32xt.png",
    "phone": "555-0103",
    "lat": 19.4315,
    "lng": -99.1325
  },
  {
    "name": "Pozolli chichiltic",
    "chef": "Doña Carmen",
    "suggestions": ["Xicpanti orégano huan limón", "Cualli ipan ilhuitl"],
    "greeting": "¡Totonqui huan cualli ichan nantli!",
    "address": "Plaza Central 67, San Juan Tahitic",
    "owner": "Doña Carmen",
    "hours": "13:00 - 18:00",
    "image": "https://res.cloudinary.com/dinsl266g/image/upload/v1763084727/pozole_spgzfs.png",
    "phone": "555-0104",
    "lat": 19.4320,
    "lng": -99.1330
  },
  {
    "name": "Chilli nogada",
    "chef": "Chef Antonio",
    "suggestions": ["Xiqualti ipan xihuitl", "Cualli ipan ilhuitl"],
    "greeting": "¡Cencah qualni huan tlapalli!",
    "address": "Restaurante El Jardín, San Juan Tahitic",
    "owner": "Chef Antonio",
    "hours": "11:00 - 19:00",
    "image": "https://res.cloudinary.com/dinsl266g/image/upload/v1763084728/chiles-nogada_gsooxh.png", 
    "phone": "555-0105",
    "lat": 19.4328,
    "lng": -99.1338
  },
  {
    "name": "Barbacoa ichcatl",
    "chef": "Don Roberto",
    "suggestions": ["Moneki ica consome", "Cualli ipan tonatiuh"],
    "greeting": "¡Tlamanitilistli tlen moneki qualti!",
    "address": "Horno Tradicional, Cerro del Sabino, San Juan Tahitic",
    "owner": "Don Roberto",
    "hours": "07:00 - 16:00",
    "image": "https://res.cloudinary.com/dinsl266g/image/upload/v1763084722/barbacoa_kfcqf6.png",
    "phone": "555-0106",
    "lat": 19.4340,
    "lng": -99.1350
  },
  {
    "name": "Enchilada xoxoctic",
    "chef": "Señora Lupe",
    "suggestions": ["Tequi ica totolin", "Cualli ipan yuhcatlacual"],
    "greeting": "¡Ichan iuhqui!",
    "address": "Cocina Económica Lupita, San Juan Tahitic",
    "owner": "Señora Lupe",
    "hours": "08:00 - 17:00",
    "image": "https://res.cloudinary.com/dinsl266g/image/upload/v1763084723/enchiladas_fnc92d.png",
    "phone": "555-0107",
    "lat": 19.4310,
    "lng": -99.1320
  },
  {
    "name": "Carnita Michoacán",
    "chef": "Don Miguel",
    "suggestions": ["Xiqualti tlitl huan nacatl", "Cualli ipan nechicolistli"],
    "greeting": "¡Tlamanitilistli Purépecha!",
    "address": "Puesto Las Carnitas, Mercado Viejo, San Juan Tahitic",
    "owner": "Don Miguel",
    "hours": "09:00 - 18:00",
    "image": "https://res.cloudinary.com/dinsl266g/image/upload/v1763084722/carnitas_qsvflb.png",
    "phone": "555-0108",
    "lat": 19.4325,
    "lng": -99.1335
  }
]